Time: 1548339081668, $GPGGA,091121,3930.5038,N,07607.5266,W,1,06,2.8,200.0,M,200.0,M,,*62
Time: 1548339082169, $GPGGA,091122,3929.7220,N,07608.4767,W,1,06,2.8,200.0,M,200.0,M,,*62
Time: 1548339082669, $GPGGA,091122,3933.0411,N,07604.3264,W,1,06,2.8,200.0,M,200.0,M,,*62
Time: 1548339083180, $GPGGA,091123,3932.9512,N,07605.1453,W,1,06,2.8,200.0,M,200.0,M,,*62
Time: 1548339084182, $GPGGA,091124,3928.6875,N,07606.9247,W,1,06,2.8,200.0,M,200.0,M,,*62
Time: 1548339084682, $GPGGA,091124,3930.0441,N,07608.6040,W,1,06,2.8,200.0,M,200.0,M,,*62
Time: 1548339085183, $GPGGA,091125,3932.7519,N,07608.0895,W,1,06,2.8,200.0,M,200.0,M,,*62
Time: 1548339085685, $GPGGA,091125,3933.2882,N,07606.9029,W,1,06,2.8,200.0,M,200.0,M,,*62
Time: 1548339086185, $GPGGA,091126,3932.9796,N,07607.4793,W,1,06,2.8,200.0,M,200.0,M,,*62
Time: 1548339086696, $GPGGA,091126,3933.4875,N,07605.3619,W,1,06,2.8,200.0,M,200.0,M,,*62
Time: 1548339087196, $GPGGA,091127,3934.2427,N,07605.2178,W,1,06,2.8,200.0,M,200.0,M,,*62
Time: 1548339087709, $GPGGA,091127,3929.5123,N,07605.3933,W,1,06,2.8,200.0,M,200.0,M,,*62
Time: 1548339088213, $GPGGA,091128,3931.0589,N,07605.5081,W,1,06,2.8,200.0,M,200.0,M,,*62
Time: 1548339088714, $GPGGA,091128,3931.5584,N,07606.6870,W,1,06,2.8,200.0,M,200.0,M,,*62
Time: 1548339089214, $GPGGA,091129,3929.2053,N,07605.9862,W,1,06,2.8,200.0,M,200.0,M,,*62
Time: 1548339089730, $GPGGA,091129,3930.4650,N,07605.3894,W,1,06,2.8,200.0,M,200.0,M,,*62
Time: 1548339090245, $GPGGA,091130,3928.5952,N,07608.4019,W,1,06,2.8,200.0,M,200.0,M,,*62
Time: 1548339090761, $GPGGA,091130,3930.0691,N,07604.4580,W,1,06,2.8,200.0,M,200.0,M,,*62
Time: 1548339091263, $GPGGA,091131,3933.6376,N,07608.2603,W,1,06,2.8,200.0,M,200.0,M,,*62
Time: 1548339091779, $GPGGA,091131,3928.7168,N,07605.6487,W,1,06,2.8,200.0,M,200.0,M,,*62
Time: 1548339092294, $GPGGA,091132,3930.1593,N,07605.3099,W,1,06,2.8,200.0,M,200.0,M,,*62
Time: 1548339093311, $GPGGA,091133,3931.0545,N,07605.9690,W,1,06,2.8,200.0,M,200.0,M,,*62
Time: 1548339093811, $GPGGA,091133,3931.7778,N,07606.7363,W,1,06,2.8,200.0,M,200.0,M,,*62
Time: 1548339094312, $GPGGA,091134,3934.1026,N,07606.3915,W,1,06,2.8,200.0,M,200.0,M,,*62
Time: 1548339094813, $GPGGA,091134,3930.8945,N,07606.1302,W,1,06,2.8,200.0,M,200.0,M,,*62
Time: 1548339095314, $GPGGA,091135,3932.8781,N,07605.2624,W,1,06,2.8,200.0,M,200.0,M,,*62
Time: 1548339095814, $GPGGA,091135,3934.2467,N,07609.3234,W,1,06,2.8,200.0,M,200.0,M,,*62
Time: 1548339096314, $GPGGA,091136,3931.7273,N,07607.3092,W,1,06,2.8,200.0,M,200.0,M,,*62
Time: 1548339096814, $GPGGA,091136,3930.3586,N,07607.9200,W,1,06,2.8,200.0,M,200.0,M,,*62
Time: 1548339097315, $GPGGA,091137,3933.0188,N,07607.7176,W,1,06,2.8,200.0,M,200.0,M,,*62
Time: 1548339097816, $GPGGA,091137,3929.1812,N,07606.6439,W,1,06,2.8,200.0,M,200.0,M,,*62
Time: 1548339098329, $GPGGA,091138,3930.0068,N,07605.6431,W,1,06,2.8,200.0,M,200.0,M,,*62
Time: 1548339098841, $GPGGA,091138,3932.0335,N,07607.8733,W,1,06,2.8,200.0,M,200.0,M,,*62
Time: 1548339099357, $GPGGA,091139,3930.6092,N,07606.7349,W,1,06,2.8,200.0,M,200.0,M,,*62
Time: 1548339099857, $GPGGA,091139,3931.7933,N,07607.2426,W,1,06,2.8,200.0,M,200.0,M,,*62
Time: 1548339100357, $GPGGA,091140,3930.6679,N,07608.1928,W,1,06,2.8,200.0,M,200.0,M,,*62
Time: 1548339101363, $GPGGA,091141,3932.8937,N,07607.5925,W,1,06,2.8,200.0,M,200.0,M,,*62
Time: 1548339101879, $GPGGA,091141,3929.4415,N,07605.7524,W,1,06,2.8,200.0,M,200.0,M,,*62
Time: 1548339102379, $GPGGA,091142,3929.1846,N,07608.5564,W,1,06,2.8,200.0,M,200.0,M,,*62
Time: 1548339102879, $GPGGA,091142,3930.5132,N,07605.4433,W,1,06,2.8,200.0,M,200.0,M,,*62
Time: 1548339103379, $GPGGA,091143,3929.3807,N,07608.3365,W,1,06,2.8,200.0,M,200.0,M,,*62
Time: 1548339103880, $GPGGA,091143,3931.5566,N,07605.2071,W,1,06,2.8,200.0,M,200.0,M,,*62
Time: 1548339104380, $GPGGA,091144,3933.0605,N,07604.6719,W,1,06,2.8,200.0,M,200.0,M,,*62
Time: 1548339104881, $GPGGA,091144,3932.6349,N,07605.1002,W,1,06,2.8,200.0,M,200.0,M,,*62
Time: 1548339105382, $GPGGA,091145,3933.6596,N,07606.5497,W,1,06,2.8,200.0,M,200.0,M,,*62
Time: 1548339105882, $GPGGA,091145,3932.8626,N,07605.5803,W,1,06,2.8,200.0,M,200.0,M,,*62
Time: 1548339106382, $GPGGA,091146,3934.0674,N,07608.3833,W,1,06,2.8,200.0,M,200.0,M,,*62
Time: 1548339106883, $GPGGA,091146,3928.5069,N,07608.3185,W,1,06,2.8,200.0,M,200.0,M,,*62
Time: 1548339107383, $GPGGA,091147,3934.2164,N,07607.2656,W,1,06,2.8,200.0,M,200.0,M,,*62
Time: 1548339107899, $GPGGA,091147,3932.3098,N,07609.5085,W,1,06,2.8,200.0,M,200.0,M,,*62
Time: 1548339108899, $GPGGA,091148,3930.0764,N,07607.1665,W,1,06,2.8,200.0,M,200.0,M,,*62
Time: 1548339109403, $GPGGA,091149,3930.0024,N,07606.9873,W,1,06,2.8,200.0,M,200.0,M,,*62
Time: 1548339109903, $GPGGA,091149,3929.0775,N,07606.3819,W,1,06,2.8,200.0,M,200.0,M,,*62
Time: 1548339110404, $GPGGA,091150,3934.2923,N,07608.2872,W,1,06,2.8,200.0,M,200.0,M,,*62
Time: 1548339110905, $GPGGA,091150,3930.8318,N,07605.1243,W,1,06,2.8,200.0,M,200.0,M,,*62
Time: 1548339111405, $GPGGA,091151,3933.3559,N,07605.3335,W,1,06,2.8,200.0,M,200.0,M,,*62
Time: 1548339111905, $GPGGA,091151,3931.9588,N,07608.0494,W,1,06,2.8,200.0,M,200.0,M,,*62
Time: 1548339112406, $GPGGA,091152,3933.0045,N,07604.2709,W,1,06,2.8,200.0,M,200.0,M,,*62
Time: 1548339112906, $GPGGA,091152,3931.0783,N,07608.1341,W,1,06,2.8,200.0,M,200.0,M,,*62
Time: 1548339113406, $GPGGA,091153,3932.3008,N,07604.5502,W,1,06,2.8,200.0,M,200.0,M,,*62
Time: 1548339113907, $GPGGA,091153,3931.8411,N,07609.3173,W,1,06,2.8,200.0,M,200.0,M,,*62
Time: 1548339114407, $GPGGA,091154,3929.1495,N,07604.3801,W,1,06,2.8,200.0,M,200.0,M,,*62
Time: 1548339114908, $GPGGA,091154,3933.9694,N,07608.1660,W,1,06,2.8,200.0,M,200.0,M,,*62
Time: 1548339115408, $GPGGA,091155,3929.7523,N,07605.5215,W,1,06,2.8,200.0,M,200.0,M,,*62
Time: 1548339115909, $GPGGA,091155,3930.6154,N,07608.7439,W,1,06,2.8,200.0,M,200.0,M,,*62
Time: 1548339116410, $GPGGA,091156,3928.7679,N,07604.2565,W,1,06,2.8,200.0,M,200.0,M,,*62
Time: 1548339116910, $GPGGA,091156,3933.7821,N,07608.7368,W,1,06,2.8,200.0,M,200.0,M,,*62
Time: 1548339117410, $GPGGA,091157,3934.1608,N,07608.4958,W,1,06,2.8,200.0,M,200.0,M,,*62
Time: 1548339117911, $GPGGA,091157,3934.2251,N,07604.8757,W,1,06,2.8,200.0,M,200.0,M,,*62
Time: 1548339118411, $GPGGA,091158,3931.3797,N,07609.3549,W,1,06,2.8,200.0,M,200.0,M,,*62
Time: 1548339118911, $GPGGA,091158,3933.9267,N,07608.8865,W,1,06,2.8,200.0,M,200.0,M,,*62
Time: 1548339119412, $GPGGA,091159,3928.5875,N,07604.5515,W,1,06,2.8,200.0,M,200.0,M,,*62
Time: 1548339119913, $GPGGA,091159,3933.3480,N,07605.6990,W,1,06,2.8,200.0,M,200.0,M,,*62
Time: 1548339120413, $GPGGA,091200,3929.9090,N,07609.4006,W,1,06,2.8,200.0,M,200.0,M,,*62
Time: 1548339120914, $GPGGA,091200,3932.2561,N,07609.6034,W,1,06,2.8,200.0,M,200.0,M,,*62
Time: 1548339121414, $GPGGA,091201,3929.4597,N,07608.9797,W,1,06,2.8,200.0,M,200.0,M,,*62
Time: 1548339121915, $GPGGA,091201,3931.2339,N,07610.1412,W,1,06,2.8,200.0,M,200.0,M,,*62
Time: 1548339122415, $GPGGA,091202,3932.6796,N,07605.0528,W,1,06,2.8,200.0,M,200.0,M,,*62
Time: 1548339122916, $GPGGA,091202,3932.3098,N,07606.2134,W,1,06,2.8,200.0,M,200.0,M,,*62
Time: 1548339123416, $GPGGA,091203,3932.8144,N,07609.3181,W,1,06,2.8,200.0,M,200.0,M,,*62
Time: 1548339123917, $GPGGA,091203,3930.4243,N,07604.4437,W,1,06,2.8,200.0,M,200.0,M,,*62
Time: 1548339124417, $GPGGA,091204,3931.6485,N,07608.2412,W,1,06,2.8,200.0,M,200.0,M,,*62
Time: 1548339124918, $GPGGA,091204,3928.9867,N,07607.0179,W,1,06,2.8,200.0,M,200.0,M,,*62
Time: 1548339125418, $GPGGA,091205,3931.3986,N,07607.6557,W,1,06,2.8,200.0,M,200.0,M,,*62
Time: 1548339125919, $GPGGA,091205,3932.1704,N,07605.4023,W,1,06,2.8,200.0,M,200.0,M,,*62
Time: 1548339126419, $GPGGA,091206,3932.0095,N,07604.4259,W,1,06,2.8,200.0,M,200.0,M,,*62
Time: 1548339126919, $GPGGA,091206,3929.2892,N,07605.8921,W,1,06,2.8,200.0,M,200.0,M,,*62
Time: 1548339127419, $GPGGA,091207,3933.8771,N,07607.9051,W,1,06,2.8,200.0,M,200.0,M,,*62
Time: 1548339127920, $GPGGA,091207,3929.1673,N,07607.5986,W,1,06,2.8,200.0,M,200.0,M,,*62
Time: 1548339128420, $GPGGA,091208,3933.1642,N,07606.5602,W,1,06,2.8,200.0,M,200.0,M,,*62
Time: 1548339128921, $GPGGA,091208,3928.6145,N,07607.4532,W,1,06,2.8,200.0,M,200.0,M,,*62
Time: 1548339129422, $GPGGA,091209,3930.8191,N,07607.4692,W,1,06,2.8,200.0,M,200.0,M,,*62
Time: 1548339130422, $GPGGA,091210,3930.4725,N,07605.8548,W,1,06,2.8,200.0,M,200.0,M,,*62
Time: 1548339130923, $GPGGA,091210,3932.9415,N,07609.9894,W,1,06,2.8,200.0,M,200.0,M,,*62
Time: 1548339131423, $GPGGA,091211,3931.5403,N,07605.4546,W,1,06,2.8,200.0,M,200.0,M,,*62
Time: 1548339131924, $GPGGA,091211,3932.7221,N,07607.5899,W,1,06,2.8,200.0,M,200.0,M,,*62
Time: 1548339132424, $GPGGA,091212,3931.9776,N,07608.5455,W,1,06,2.8,200.0,M,200.0,M,,*62
Time: 1548339132924, $GPGGA,091212,3933.1651,N,07610.1387,W,1,06,2.8,200.0,M,200.0,M,,*62
Time: 1548339133425, $GPGGA,091213,3933.2344,N,07607.4657,W,1,06,2.8,200.0,M,200.0,M,,*62
Time: 1548339133925, $GPGGA,091213,3934.2809,N,07608.0949,W,1,06,2.8,200.0,M,200.0,M,,*62
Time: 1548339134426, $GPGGA,091214,3931.3731,N,07607.8906,W,1,06,2.8,200.0,M,200.0,M,,*62
Time: 1548339134926, $GPGGA,091214,3933.8186,N,07609.3974,W,1,06,2.8,200.0,M,200.0,M,,*62
Time: 1548339135426, $GPGGA,091215,3931.4974,N,07607.6275,W,1,06,2.8,200.0,M,200.0,M,,*62
Time: 1548339135927, $GPGGA,091215,3930.6822,N,07607.8027,W,1,06,2.8,200.0,M,200.0,M,,*62
Time: 1548339136427, $GPGGA,091216,3931.7486,N,07608.2231,W,1,06,2.8,200.0,M,200.0,M,,*62
Time: 1548339136927, $GPGGA,091216,3930.0789,N,07604.5920,W,1,06,2.8,200.0,M,200.0,M,,*62
Time: 1548339137428, $GPGGA,091217,3934.0724,N,07606.1473,W,1,06,2.8,200.0,M,200.0,M,,*62
Time: 1548339137928, $GPGGA,091217,3928.7718,N,07607.7402,W,1,06,2.8,200.0,M,200.0,M,,*62
Time: 1548339138428, $GPGGA,091218,3931.4598,N,07607.6938,W,1,06,2.8,200.0,M,200.0,M,,*62
Time: 1548339138929, $GPGGA,091218,3931.9080,N,07608.9914,W,1,06,2.8,200.0,M,200.0,M,,*62
Time: 1548339139429, $GPGGA,091219,3932.0450,N,07609.5610,W,1,06,2.8,200.0,M,200.0,M,,*62
Time: 1548339139929, $GPGGA,091219,3929.9792,N,07609.2090,W,1,06,2.8,200.0,M,200.0,M,,*62
Time: 1548339140430, $GPGGA,091220,3933.0460,N,07609.6117,W,1,06,2.8,200.0,M,200.0,M,,*62
Time: 1548339140930, $GPGGA,091220,3928.4556,N,07607.9878,W,1,06,2.8,200.0,M,200.0,M,,*62
Time: 1548339141431, $GPGGA,091221,3931.9142,N,07610.0074,W,1,06,2.8,200.0,M,200.0,M,,*62
Time: 1548339141931, $GPGGA,091221,3928.6743,N,07606.7642,W,1,06,2.8,200.0,M,200.0,M,,*62
Time: 1548339142432, $GPGGA,091222,3933.0134,N,07608.7899,W,1,06,2.8,200.0,M,200.0,M,,*62
Time: 1548339142932, $GPGGA,091222,3930.5382,N,07609.3187,W,1,06,2.8,200.0,M,200.0,M,,*62
Time: 1548339143433, $GPGGA,091223,3928.8330,N,07609.8215,W,1,06,2.8,200.0,M,200.0,M,,*62
